{
  "dataset_name": "spain_restaurant_region_index",
  "generated_at": "2026-06-28",
  "language": "ja",
  "default_region_id": "barcelona",
  "regions": [
    {
      "id": "barcelona",
      "name": "バルセロナ",
      "country": "Spain",
      "description": "バルセロナ市内の飲食店候補",
      "data_url": "regions/barcelona.json",
      "landmark_data_url": "landmarks/barcelona.json",
      "map_center": {
        "lat": 41.3902,
        "lng": 2.17,
        "zoom": 13
      }
    },
    {
      "id": "granada",
      "name": "グラナダ",
      "country": "Spain",
      "description": "グラナダ市内の飲食店候補",
      "data_url": "regions/granada.json",
      "landmark_data_url": "landmarks/granada.json",
      "map_center": {
        "lat": 37.1773,
        "lng": -3.5986,
        "zoom": 14
      }
    },
    {
      "id": "toledo",
      "name": "トレド",
      "country": "Spain",
      "description": "トレド旧市街周辺の飲食店候補",
      "data_url": "regions/toledo.json",
      "landmark_data_url": "landmarks/toledo.json",
      "map_center": {
        "lat": 39.8589,
        "lng": -4.0227,
        "zoom": 15
      }
    },
    {
      "id": "aranjuez",
      "name": "アランフェス",
      "country": "Spain",
      "description": "アランフェス王宮・庭園周辺のカフェ・休憩スポット候補",
      "data_url": "regions/aranjuez.json",
      "landmark_data_url": "landmarks/aranjuez.json",
      "map_center": {
        "lat": 40.0356,
        "lng": -3.6042,
        "zoom": 15
      }
    },
    {
      "id": "segovia",
      "name": "セゴビア",
      "country": "Spain",
      "description": "セゴビア旧市街周辺の飲食店・カフェ候補",
      "data_url": "regions/segovia.json",
      "landmark_data_url": "landmarks/segovia.json",
      "map_center": {
        "lat": 40.9501,
        "lng": -4.1237,
        "zoom": 16
      }
    },
    {
      "id": "madrid",
      "name": "マドリード",
      "country": "Spain",
      "description": "マドリード市内の飲食店候補",
      "data_url": "regions/madrid.json",
      "landmark_data_url": "landmarks/madrid.json",
      "map_center": {
        "lat": 40.4168,
        "lng": -3.7038,
        "zoom": 15
      }
    }
  ]
}
